[{"model": "repatriate.registrationsite", "pk": "1", "fields": {"name": "Aguelhoc", "locality": "83001001", "latitude": null, "longitude": null, "geometry": null, "deactivate": false, "confirmed": true}}, {"model": "repatriate.registrationsite", "pk": "10", "fields": {"name": "Gossi", "locality": "64019249", "latitude": null, "longitude": null, "geometry": null, "deactivate": false, "confirmed": true}}, {"model": "repatriate.registrationsite", "pk": "11", "fields": {"name": "Goundam", "locality": "63091000", "latitude": null, "longitude": null, "geometry": null, "deactivate": false, "confirmed": true}}, {"model": "repatriate.registrationsite", "pk": "12", "fields": {"name": "Intillit", "locality": "71037901", "latitude": null, "longitude": null, "geometry": null, "deactivate": false, "confirmed": true}}, {"model": "repatriate.registrationsite", "pk": "13", "fields": {"name": "Kidal centre ", "locality": "81091841", "latitude": null, "longitude": null, "geometry": null, "deactivate": false, "confirmed": true}}, {"model": "repatriate.registrationsite", "pk": "14", "fields": {"name": "Labezanga", "locality": "72037774", "latitude": null, "longitude": null, "geometry": null, "deactivate": false, "confirmed": true}}, {"model": "repatriate.registrationsite", "pk": "15", "fields": {"name": "lere", "locality": "65045661", "latitude": null, "longitude": null, "geometry": null, "deactivate": false, "confirmed": true}}, {"model": "repatriate.registrationsite", "pk": "16", "fields": {"name": "Menaka", "locality": "74045761", "latitude": null, "longitude": null, "geometry": null, "deactivate": false, "confirmed": true}}, {"model": "repatriate.registrationsite", "pk": "17", "fields": {"name": "Soumpi", "locality": "65078856", "latitude": null, "longitude": null, "geometry": null, "deactivate": false, "confirmed": true}}, {"model": "repatriate.registrationsite", "pk": "18", "fields": {"name": "Tenenkou", "locality": "57091001", "latitude": null, "longitude": null, "geometry": null, "deactivate": false, "confirmed": true}}, {"model": "repatriate.registrationsite", "pk": "19", "fields": {"name": "Tessalit", "locality": "83030853", "latitude": null, "longitude": null, "geometry": null, "deactivate": false, "confirmed": true}}, {"model": "repatriate.registrationsite", "pk": "2", "fields": {"name": "Anderamboukane", "locality": "74001000", "latitude": null, "longitude": null, "geometry": null, "deactivate": false, "confirmed": true}}, {"model": "repatriate.registrationsite", "pk": "20", "fields": {"name": "Tombouctou", "locality": "61091000", "latitude": null, "longitude": null, "geometry": null, "deactivate": false, "confirmed": true}}, {"model": "repatriate.registrationsite", "pk": "21", "fields": {"name": "youwarou", "locality": "58073000", "latitude": null, "longitude": null, "geometry": null, "deactivate": false, "confirmed": true}}, {"model": "repatriate.registrationsite", "pk": "24", "fields": {"name": "bambara Maoude", "locality": "64001073", "latitude": null, "longitude": null, "geometry": null, "deactivate": false, "confirmed": true}}, {"model": "repatriate.registrationsite", "pk": "25", "fields": {"name": "Essakane", "locality": "63026451", "latitude": null, "longitude": null, "geometry": null, "deactivate": false, "confirmed": true}}, {"model": "repatriate.registrationsite", "pk": "27", "fields": {"name": "Nampala", "locality": "45029000", "latitude": null, "longitude": null, "geometry": null, "deactivate": false, "confirmed": true}}, {"model": "repatriate.registrationsite", "pk": "28", "fields": {"name": "Gourma Rharous", "locality": "64000000", "latitude": null, "longitude": null, "geometry": null, "deactivate": false, "confirmed": true}}, {"model": "repatriate.registrationsite", "pk": "3", "fields": {"name": "Anefif", "locality": "81001000", "latitude": null, "longitude": null, "geometry": null, "deactivate": false, "confirmed": true}}, {"model": "repatriate.registrationsite", "pk": "33", "fields": {"name": "Niono", "locality": "45036000", "latitude": null, "longitude": null, "geometry": null, "deactivate": false, "confirmed": true}}, {"model": "repatriate.registrationsite", "pk": "35", "fields": {"name": "S\u00e9gou", "locality": "41091000", "latitude": null, "longitude": null, "geometry": null, "deactivate": false, "confirmed": true}}, {"model": "repatriate.registrationsite", "pk": "4", "fields": {"name": "Bamako", "locality": "91000000", "latitude": null, "longitude": null, "geometry": null, "deactivate": false, "confirmed": true}}, {"model": "repatriate.registrationsite", "pk": "5", "fields": {"name": "Boni", "locality": "55031063", "latitude": null, "longitude": null, "geometry": null, "deactivate": false, "confirmed": true}}, {"model": "repatriate.registrationsite", "pk": "6", "fields": {"name": "Bourem", "locality": "73091000", "latitude": null, "longitude": null, "geometry": null, "deactivate": false, "confirmed": true}}, {"model": "repatriate.registrationsite", "pk": "7", "fields": {"name": "Dire", "locality": "62091000", "latitude": null, "longitude": null, "geometry": null, "deactivate": false, "confirmed": true}}, {"model": "repatriate.registrationsite", "pk": "8", "fields": {"name": "Djebock", "locality": "71001105", "latitude": null, "longitude": null, "geometry": null, "deactivate": false, "confirmed": true}}, {"model": "repatriate.registrationsite", "pk": "9", "fields": {"name": "Gao centre", "locality": "71091000", "latitude": null, "longitude": null, "geometry": null, "deactivate": false, "confirmed": true}}]